[
  {
    "category": "관광특구",
    "NO": "1",
    "AREA_CD": "POI001",
    "name": "강남 MICE 관광특구",
    "ENG_NM": "Gangnam MICE Special Tourist Zone",
    "images": "image1",
    "longitude": "127.06012",
    "latitude": "37.51267"
  },
  {
    "category": "관광특구",
    "NO": "2",
    "AREA_CD": "POI002",
    "name": "동대문 관광특구",
    "ENG_NM": "Dongdaemun Fashion Town Special Tourist Zone",
    "images": "image2",
    "longitude": "127.01319",
    "latitude": "37.56555"
  },
  {
    "category": "관광특구",
    "NO": "3",
    "AREA_CD": "POI003",
    "name": "명동 관광특구",
    "ENG_NM": "Myeong-dong Namdaemun Bukchang-dong Da-dong Mugyo-dong Special Tourist Zone",
    "images": "image3",
    "longitude": "126.98444",
    "latitude": "37.56340"
  },
  {
    "category": "관광특구",
    "NO": "4",
    "AREA_CD": "POI004",
    "name": "이태원 관광특구",
    "ENG_NM": "Itaewon Special Tourist Zone",
    "images": "image4",
    "longitude": "126.99676",
    "latitude": "37.53393"
  },
  {
    "category": "관광특구",
    "NO": "5",
    "AREA_CD": "POI005",
    "name": "잠실 관광특구",
    "ENG_NM": "Jamsil Special Tourist Zone",
    "images": "image5",
    "longitude": "127.11891",
    "latitude": "37.51991"
  },
  {
    "category": "관광특구",
    "NO": "6",
    "AREA_CD": "POI006",
    "name": "종로·청계 관광특구",
    "ENG_NM": "Jongno Cheonggye Special Toruist Zone",
    "images": "image6",
    "longitude": "126.99221",
    "latitude": "37.56947"
  },
  {
    "category": "관광특구",
    "NO": "7",
    "AREA_CD": "POI007",
    "name": "홍대 관광특구",
    "ENG_NM": "HongDae Culture & Arts Special Tourist Zone",
    "images": "image7",
    "longitude": "126.92300",
    "latitude": "37.55319"
  },
  {
    "category": "고궁·문화유산",
    "NO": "8",
    "AREA_CD": "POI008",
    "name": "경복궁",
    "ENG_NM": "Gyeongbokgung Palace",
    "images": "image8",
    "longitude": "126.97672",
    "latitude": "37.57986"
  },
  {
    "category": "고궁·문화유산",
    "NO": "9",
    "AREA_CD": "POI009",
    "name": "광화문·덕수궁",
    "ENG_NM": "Gwanghwamun & Deoksugung Palace",
    "images": "image9",
    "longitude": "126.97755",
    "latitude": "37.57213"
  },
  {
    "category": "고궁·문화유산",
    "NO": "10",
    "AREA_CD": "POI010",
    "name": "보신각",
    "ENG_NM": "Bosingak",
    "images": "image10",
    "longitude": "126.98424",
    "latitude": "37.57089"
  },
  {
    "category": "고궁·문화유산",
    "NO": "11",
    "AREA_CD": "POI011",
    "name": "서울 암사동 유적",
    "ENG_NM": "Amsa Prehistoric Settlement Site",
    "images": "image11",
    "longitude": "127.13033",
    "latitude": "37.56005"
  },
  {
    "category": "고궁·문화유산",
    "NO": "12",
    "AREA_CD": "POI012",
    "name": "창덕궁·종묘",
    "ENG_NM": "Changdeokgung Palace & Jongmyo Shrine",
    "images": "image12",
    "longitude": "126.99404",
    "latitude": "37.57706"
  },
  {
    "category": "인구밀집지역",
    "NO": "13",
    "AREA_CD": "POI013",
    "name": "가산디지털단지역",
    "ENG_NM": "Gasan Digital Complex station",
    "images": "image13",
    "longitude": "126.88238",
    "latitude": "37.48071"
  },
  {
    "category": "인구밀집지역",
    "NO": "14",
    "AREA_CD": "POI014",
    "name": "강남역",
    "ENG_NM": "Gangnam station",
    "images": "image14",
    "longitude": "127.02824",
    "latitude": "37.49849"
  },
  {
    "category": "인구밀집지역",
    "NO": "15",
    "AREA_CD": "POI015",
    "name": "건대입구역",
    "ENG_NM": "Konkuk University station",
    "images": "image15",
    "longitude": "127.06785",
    "latitude": "37.53923"
  },
  {
    "category": "인구밀집지역",
    "NO": "16",
    "AREA_CD": "POI016",
    "name": "고덕역",
    "ENG_NM": "Godeok station",
    "images": "image16",
    "longitude": "127.15486",
    "latitude": "37.55343"
  },
  {
    "category": "인구밀집지역",
    "NO": "17",
    "AREA_CD": "POI017",
    "name": "고속터미널역",
    "ENG_NM": "Express Bus Terminal station",
    "images": "image17",
    "longitude": "127.00619",
    "latitude": "37.50460"
  },
  {
    "category": "인구밀집지역",
    "NO": "18",
    "AREA_CD": "POI018",
    "name": "교대역",
    "ENG_NM": "Seoul National University of Education station",
    "images": "image18",
    "longitude": "127.01353",
    "latitude": "37.49166"
  },
  {
    "category": "인구밀집지역",
    "NO": "19",
    "AREA_CD": "POI019",
    "name": "구로디지털단지역",
    "ENG_NM": "Guro Digital Complex station",
    "images": "image19",
    "longitude": "126.89528",
    "latitude": "37.48345"
  },
  {
    "category": "인구밀집지역",
    "NO": "20",
    "AREA_CD": "POI020",
    "name": "구로역",
    "ENG_NM": "Guro station",
    "images": "image20",
    "longitude": "126.88205",
    "latitude": "37.50206"
  },
  {
    "category": "인구밀집지역",
    "NO": "21",
    "AREA_CD": "POI021",
    "name": "군자역",
    "ENG_NM": "Gunja station",
    "images": "image21",
    "longitude": "127.08022",
    "latitude": "37.55672"
  },
  {
    "category": "인구밀집지역",
    "NO": "22",
    "AREA_CD": "POI022",
    "name": "남구로역",
    "ENG_NM": "Namguro station",
    "images": "image22",
    "longitude": "126.88717",
    "latitude": "37.48498"
  },
  {
    "category": "인구밀집지역",
    "NO": "23",
    "AREA_CD": "POI023",
    "name": "대림역",
    "ENG_NM": "Daerim station",
    "images": "image23",
    "longitude": "126.89609",
    "latitude": "37.49231"
  },
  {
    "category": "인구밀집지역",
    "NO": "24",
    "AREA_CD": "POI024",
    "name": "동대문역",
    "ENG_NM": "Dongdaemun station",
    "images": "image24",
    "longitude": "127.00933",
    "latitude": "37.57101"
  },
  {
    "category": "인구밀집지역",
    "NO": "25",
    "AREA_CD": "POI025",
    "name": "뚝섬역",
    "ENG_NM": "Ttukseom station",
    "images": "image25",
    "longitude": "127.04717",
    "latitude": "37.54809"
  },
  {
    "category": "인구밀집지역",
    "NO": "26",
    "AREA_CD": "POI026",
    "name": "미아사거리역",
    "ENG_NM": "Miasageori station",
    "images": "image26",
    "longitude": "127.03089",
    "latitude": "37.61215"
  },
  {
    "category": "인구밀집지역",
    "NO": "27",
    "AREA_CD": "POI027",
    "name": "발산역",
    "ENG_NM": "Balsan station",
    "images": "image27",
    "longitude": "126.83897",
    "latitude": "37.55873"
  },
  {
    "category": "인구밀집지역",
    "NO": "28",
    "AREA_CD": "POI028",
    "name": "북한산우이역",
    "ENG_NM": "Bukhansan Ui station",
    "images": "image28",
    "longitude": "127.01125",
    "latitude": "37.66272"
  },
  {
    "category": "인구밀집지역",
    "NO": "29",
    "AREA_CD": "POI029",
    "name": "사당역",
    "ENG_NM": "Sadang station",
    "images": "image29",
    "longitude": "126.98053",
    "latitude": "37.47755"
  },
  {
    "category": "인구밀집지역",
    "NO": "30",
    "AREA_CD": "POI030",
    "name": "삼각지역",
    "ENG_NM": "Samgakji station",
    "images": "image30",
    "longitude": "126.97415",
    "latitude": "37.53506"
  },
  {
    "category": "인구밀집지역",
    "NO": "31",
    "AREA_CD": "POI031",
    "name": "서울대입구역",
    "ENG_NM": "Seoul National University station",
    "images": "image31",
    "longitude": "126.95282",
    "latitude": "37.48107"
  },
  {
    "category": "인구밀집지역",
    "NO": "32",
    "AREA_CD": "POI032",
    "name": "서울식물원·마곡나루역",
    "ENG_NM": "Seoul Botanic Park·Magongnaru station",
    "images": "image32",
    "longitude": "126.83122",
    "latitude": "37.56539"
  },
  {
    "category": "인구밀집지역",
    "NO": "33",
    "AREA_CD": "POI033",
    "name": "서울역",
    "ENG_NM": "Seoul station",
    "images": "image33",
    "longitude": "126.97305",
    "latitude": "37.55739"
  },
  {
    "category": "인구밀집지역",
    "NO": "34",
    "AREA_CD": "POI034",
    "name": "선릉역",
    "ENG_NM": "Seolleung station",
    "images": "image34",
    "longitude": "127.04980",
    "latitude": "37.50553"
  },
  {
    "category": "인구밀집지역",
    "NO": "35",
    "AREA_CD": "POI035",
    "name": "성신여대입구역",
    "ENG_NM": "Sungshin Women's University station",
    "images": "image35",
    "longitude": "127.01684",
    "latitude": "37.59263"
  },
  {
    "category": "인구밀집지역",
    "NO": "36",
    "AREA_CD": "POI036",
    "name": "수유역",
    "ENG_NM": "Suyu station",
    "images": "image36",
    "longitude": "127.02665",
    "latitude": "37.64064"
  },
  {
    "category": "인구밀집지역",
    "NO": "37",
    "AREA_CD": "POI037",
    "name": "신논현역·논현역",
    "ENG_NM": "Sinnonhyeon·Nonhyeon station",
    "images": "image37",
    "longitude": "127.02362",
    "latitude": "37.50761"
  },
  {
    "category": "인구밀집지역",
    "NO": "38",
    "AREA_CD": "POI038",
    "name": "신도림역",
    "ENG_NM": "Sindorim station",
    "images": "image38",
    "longitude": "126.89031",
    "latitude": "37.50886"
  },
  {
    "category": "인구밀집지역",
    "NO": "39",
    "AREA_CD": "POI039",
    "name": "신림역",
    "ENG_NM": "Sillim station",
    "images": "image39",
    "longitude": "126.92939",
    "latitude": "37.48446"
  },
  {
    "category": "인구밀집지역",
    "NO": "40",
    "AREA_CD": "POI040",
    "name": "신촌·이대역",
    "ENG_NM": "Sinchon·Ewha Womans University station",
    "images": "image40",
    "longitude": "126.93864",
    "latitude": "37.55698"
  },
  {
    "category": "인구밀집지역",
    "NO": "41",
    "AREA_CD": "POI041",
    "name": "양재역",
    "ENG_NM": "Yangjae station",
    "images": "image41",
    "longitude": "127.03479",
    "latitude": "37.48530"
  },
  {
    "category": "인구밀집지역",
    "NO": "42",
    "AREA_CD": "POI042",
    "name": "역삼역",
    "ENG_NM": "Yeoksam station",
    "images": "image42",
    "longitude": "127.03757",
    "latitude": "37.49944"
  },
  {
    "category": "인구밀집지역",
    "NO": "43",
    "AREA_CD": "POI043",
    "name": "연신내역",
    "ENG_NM": "Yeonsinnae station",
    "images": "image43",
    "longitude": "126.92072",
    "latitude": "37.61822"
  },
  {
    "category": "인구밀집지역",
    "NO": "44",
    "AREA_CD": "POI044",
    "name": "오목교역·목동운동장",
    "ENG_NM": "Omokgyo·Mok-dong Stadium station",
    "images": "image44",
    "longitude": "126.87594",
    "latitude": "37.52792"
  },
  {
    "category": "인구밀집지역",
    "NO": "45",
    "AREA_CD": "POI045",
    "name": "왕십리역",
    "ENG_NM": "Wangsimni station",
    "images": "image45",
    "longitude": "127.03847",
    "latitude": "37.56169"
  },
  {
    "category": "인구밀집지역",
    "NO": "46",
    "AREA_CD": "POI046",
    "name": "용산역",
    "ENG_NM": "Yongsan station",
    "images": "image46",
    "longitude": "126.95956",
    "latitude": "37.53079"
  },
  {
    "category": "인구밀집지역",
    "NO": "47",
    "AREA_CD": "POI047",
    "name": "이태원역",
    "ENG_NM": "Itaewon station",
    "images": "image47",
    "longitude": "126.99197",
    "latitude": "37.53447"
  },
  {
    "category": "인구밀집지역",
    "NO": "48",
    "AREA_CD": "POI048",
    "name": "장지역",
    "ENG_NM": "Jangji station",
    "images": "image48",
    "longitude": "127.12358",
    "latitude": "37.47869"
  },
  {
    "category": "인구밀집지역",
    "NO": "49",
    "AREA_CD": "POI049",
    "name": "장한평역",
    "ENG_NM": "Janghanpyeong station",
    "images": "image49",
    "longitude": "127.06471",
    "latitude": "37.56134"
  },
  {
    "category": "인구밀집지역",
    "NO": "50",
    "AREA_CD": "POI050",
    "name": "천호역",
    "ENG_NM": "Cheonho station",
    "images": "image50",
    "longitude": "127.12515",
    "latitude": "37.53938"
  },
  {
    "category": "인구밀집지역",
    "NO": "51",
    "AREA_CD": "POI051",
    "name": "총신대입구(이수)역",
    "ENG_NM": "Chongshin University(Isu) station",
    "images": "image51",
    "longitude": "126.98062",
    "latitude": "37.48593"
  },
  {
    "category": "인구밀집지역",
    "NO": "52",
    "AREA_CD": "POI052",
    "name": "충정로역",
    "ENG_NM": "Chungjeongno station",
    "images": "image52",
    "longitude": "126.96356",
    "latitude": "37.55943"
  },
  {
    "category": "인구밀집지역",
    "NO": "53",
    "AREA_CD": "POI053",
    "name": "합정역",
    "ENG_NM": "Hapjeong station",
    "images": "image53",
    "longitude": "126.91289",
    "latitude": "37.54820"
  },
  {
    "category": "인구밀집지역",
    "NO": "54",
    "AREA_CD": "POI054",
    "name": "혜화역",
    "ENG_NM": "Hyehwa station",
    "images": "image54",
    "longitude": "127.00202",
    "latitude": "37.51267"
  },
  {
    "category": "인구밀집지역",
    "NO": "55",
    "AREA_CD": "POI055",
    "name": "홍대입구역(2호선)",
    "ENG_NM": "Hongik University station(Line 2)",
    "images": "image55",
    "longitude": "126.92172",
    "latitude": "37.55644"
  },
  {
    "category": "인구밀집지역",
    "NO": "56",
    "AREA_CD": "POI056",
    "name": "회기역",
    "ENG_NM": "Hoegi station",
    "images": "image56",
    "longitude": "127.05656",
    "latitude": "37.59022"
  },
  {
    "category": "발달상권",
    "NO": "57",
    "AREA_CD": "POI057",
    "name": "4·19 카페거리",
    "ENG_NM": "4·19 Cafe street",
    "images": "image57",
    "longitude": "127.00695",
    "latitude": "37.64481"
  },
  {
    "category": "발달상권",
    "NO": "58",
    "AREA_CD": "POI058",
    "name": "가락시장",
    "ENG_NM": "Garak Market",
    "images": "image58",
    "longitude": "127.11154",
    "latitude": "37.49400"
  },
  {
    "category": "발달상권",
    "NO": "59",
    "AREA_CD": "POI059",
    "name": "가로수길",
    "ENG_NM": "Garosu-gil",
    "images": "image59",
    "longitude": "127.02380",
    "latitude": "37.52106"
  },
  {
    "category": "발달상권",
    "NO": "60",
    "AREA_CD": "POI060",
    "name": "광장(전통)시장",
    "ENG_NM": "Gwangjang(Traditional) Market",
    "images": "image60",
    "longitude": "126.99959",
    "latitude": "37.56988"
  },
  {
    "category": "발달상권",
    "NO": "61",
    "AREA_CD": "POI061",
    "name": "김포공항",
    "ENG_NM": "Gimpo Airport",
    "images": "image61",
    "longitude": "126.80189",
    "latitude": "37.56114"
  },
  {
    "category": "발달상권",
    "NO": "62",
    "AREA_CD": "POI062",
    "name": "낙산공원·이화마을",
    "ENG_NM": "Naksan Park·Ihwa Village",
    "images": "image62",
    "longitude": "127.00725",
    "latitude": "37.58007"
  },
  {
    "category": "발달상권",
    "NO": "63",
    "AREA_CD": "POI063",
    "name": "노량진",
    "ENG_NM": "Noryangjin",
    "images": "image63",
    "longitude": "126.94370",
    "latitude": "37.51369"
  },
  {
    "category": "발달상권",
    "NO": "64",
    "AREA_CD": "POI064",
    "name": "덕수궁길·정동길",
    "ENG_NM": "Deoksugung-gil·Jeongdong-gil",
    "images": "image64",
    "longitude": "126.97231",
    "latitude": "37.55672"
  },
  {
    "category": "발달상권",
    "NO": "65",
    "AREA_CD": "POI065",
    "name": "방배역 먹자골목",
    "ENG_NM": "Bangbae food alley",
    "images": "image65",
    "longitude": "126.99616",
    "latitude": "37.48231"
  },
  {
    "category": "발달상권",
    "NO": "66",
    "AREA_CD": "POI066",
    "name": "북촌한옥마을",
    "ENG_NM": "Bukchon Hanok Village",
    "images": "image66",
    "longitude": "126.98419",
    "latitude": "37.58099"
  },
  {
    "category": "발달상권",
    "NO": "67",
    "AREA_CD": "POI067",
    "name": "서촌",
    "ENG_NM": "Seochon",
    "images": "image67",
    "longitude": "126.96996",
    "latitude": "37.57974"
  },
  {
    "category": "발달상권",
    "NO": "68",
    "AREA_CD": "POI068",
    "name": "성수카페거리",
    "ENG_NM": "Seongsu Cafe Street",
    "images": "image68",
    "longitude": "127.05659",
    "latitude": "37.54266"
  },
  {
    "category": "발달상권",
    "NO": "69",
    "AREA_CD": "POI069",
    "name": "수유리 먹자골목",
    "ENG_NM": "Suyuri food alley",
    "images": "image69",
    "longitude": "127.02763",
    "latitude": "37.64236"
  },
  {
    "category": "발달상권",
    "NO": "70",
    "AREA_CD": "POI070",
    "name": "쌍문동 맛집거리",
    "ENG_NM": "Ssangmun-dong restaurant street",
    "images": "image70",
    "longitude": "127.03292",
    "latitude": "37.64732"
  },
  {
    "category": "발달상권",
    "NO": "71",
    "AREA_CD": "POI071",
    "name": "압구정로데오거리",
    "ENG_NM": "Apgujeong Rodeo Street",
    "images": "image71",
    "longitude": "127.03628",
    "latitude": "37.52413"
  },
  {
    "category": "발달상권",
    "NO": "72",
    "AREA_CD": "POI072",
    "name": "여의도",
    "ENG_NM": "Yeouido",
    "images": "image72",
    "longitude": "126.92680",
    "latitude": "37.52374"
  },
  {
    "category": "발달상권",
    "NO": "73",
    "AREA_CD": "POI073",
    "name": "연남동",
    "ENG_NM": "Yeonnam-dong",
    "images": "image73",
    "longitude": "126.92231",
    "latitude": "37.56190"
  },
  {
    "category": "발달상권",
    "NO": "74",
    "AREA_CD": "POI074",
    "name": "영등포 타임스퀘어",
    "ENG_NM": "Yeongdeungpo Time square",
    "images": "image74",
    "longitude": "126.90717",
    "latitude": "37.51676"
  },
  {
    "category": "발달상권",
    "NO": "75",
    "AREA_CD": "POI075",
    "name": "외대앞",
    "ENG_NM": "Hankuk University of Foreign Studies",
    "images": "image75",
    "longitude": "127.06302",
    "latitude": "37.59475"
  },
  {
    "category": "발달상권",
    "NO": "76",
    "AREA_CD": "POI076",
    "name": "용리단길",
    "ENG_NM": "Yongnidan-gil",
    "images": "image76",
    "longitude": "126.97145",
    "latitude": "37.53117"
  },
  {
    "category": "발달상권",
    "NO": "77",
    "AREA_CD": "POI077",
    "name": "이태원 앤틱가구거리",
    "ENG_NM": "Itaewon Antiques street",
    "images": "image77",
    "longitude": "126.99371",
    "latitude": "37.53234"
  },
  {
    "category": "발달상권",
    "NO": "78",
    "AREA_CD": "POI078",
    "name": "인사동·익선동",
    "ENG_NM": "Insa-dong·Ikseon-dong",
    "images": "image78",
    "longitude": "126.98713",
    "latitude": "37.57132"
  },
  {
    "category": "발달상권",
    "NO": "79",
    "AREA_CD": "POI079",
    "name": "창동 신경제 중심지",
    "ENG_NM": "Changdong New Economic Center",
    "images": "image79",
    "longitude": "127.05396",
    "latitude": "37.65667"
  },
  {
    "category": "발달상권",
    "NO": "80",
    "AREA_CD": "POI080",
    "name": "청담동 명품거리",
    "ENG_NM": "Cheongdam-dong Luxury Fashion street",
    "images": "image80",
    "longitude": "127.04670",
    "latitude": "37.52540"
  },
  {
    "category": "발달상권",
    "NO": "81",
    "AREA_CD": "POI081",
    "name": "청량리 제기동 일대 전통시장",
    "ENG_NM": "Traditional market in Cheongnyangni Jegi-dong",
    "images": "image81",
    "longitude": "127.03916",
    "latitude": "37.58067"
  },
  {
    "category": "발달상권",
    "NO": "82",
    "AREA_CD": "POI082",
    "name": "해방촌·경리단길",
    "ENG_NM": "Haebangchon·Gyeongnidan-gil",
    "images": "image82",
    "longitude": "126.98729",
    "latitude": "37.54190"
  },
  {
    "category": "발달상권",
    "NO": "83",
    "AREA_CD": "POI083",
    "name": "DDP(동대문디자인플라자)",
    "ENG_NM": "DDP(Dongdaemun Design Plaza)",
    "images": "image83",
    "longitude": "127.01045",
    "latitude": "37.56640"
  },
  {
    "category": "발달상권",
    "NO": "84",
    "AREA_CD": "POI084",
    "name": "DMC(디지털미디어시티)",
    "ENG_NM": "DMC(Digital Media City)",
    "images": "image84",
    "longitude": "126.89559",
    "latitude": "37.57741"
  },
  {
    "category": "공원",
    "NO": "85",
    "AREA_CD": "POI085",
    "name": "강서한강공원",
    "ENG_NM": "Gangseo Hangang Park",
    "images": "image85",
    "longitude": "126.81753",
    "latitude": "37.58689"
  },
  {
    "category": "공원",
    "NO": "86",
    "AREA_CD": "POI086",
    "name": "고척돔",
    "ENG_NM": "Gocheok Dome",
    "images": "image86",
    "longitude": "126.86722",
    "latitude": "37.49788"
  },
  {
    "category": "공원",
    "NO": "87",
    "AREA_CD": "POI087",
    "name": "광나루한강공원",
    "ENG_NM": "Gwangnaru Hangang Park",
    "images": "image87",
    "longitude": "127.11458",
    "latitude": "37.53946"
  },
  {
    "category": "공원",
    "NO": "88",
    "AREA_CD": "POI088",
    "name": "광화문광장",
    "ENG_NM": "Gwanghwamun Square",
    "images": "image88",
    "longitude": "126.97695",
    "latitude": "37.57232"
  },
  {
    "category": "공원",
    "NO": "89",
    "AREA_CD": "POI089",
    "name": "국립중앙박물관·용산가족공원",
    "ENG_NM": "The National Museum of Korea·Yongsan Family Park",
    "images": "image89",
    "longitude": "126.98083",
    "latitude": "37.52276"
  },
  {
    "category": "공원",
    "NO": "90",
    "AREA_CD": "POI090",
    "name": "난지한강공원",
    "ENG_NM": "Nanji Hangang Park",
    "images": "image90",
    "longitude": "126.87797",
    "latitude": "37.56639"
  },
  {
    "category": "공원",
    "NO": "91",
    "AREA_CD": "POI091",
    "name": "남산공원",
    "ENG_NM": "Namsan Park",
    "images": "image91",
    "longitude": "126.98907",
    "latitude": "37.55164"
  },
  {
    "category": "공원",
    "NO": "92",
    "AREA_CD": "POI092",
    "name": "노들섬",
    "ENG_NM": "Nodeul island",
    "images": "image92",
    "longitude": "126.95914",
    "latitude": "37.51728"
  },
  {
    "category": "공원",
    "NO": "93",
    "AREA_CD": "POI093",
    "name": "뚝섬한강공원",
    "ENG_NM": "Ttukseom Hangang Park",
    "images": "image93",
    "longitude": "127.06834",
    "latitude": "37.52962"
  },
  {
    "category": "공원",
    "NO": "94",
    "AREA_CD": "POI094",
    "name": "망원한강공원",
    "ENG_NM": "Mangwon Hangang Park",
    "images": "image94",
    "longitude": "126.89944",
    "latitude": "37.55231"
  },
  {
    "category": "공원",
    "NO": "95",
    "AREA_CD": "POI095",
    "name": "반포한강공원",
    "ENG_NM": "Banpo Hangang Park",
    "images": "image95",
    "longitude": "126.99439",
    "latitude": "37.50916"
  },
  {
    "category": "공원",
    "NO": "96",
    "AREA_CD": "POI096",
    "name": "북서울꿈의숲",
    "ENG_NM": "Dream Forest",
    "images": "image96",
    "longitude": "127.04131",
    "latitude": "37.62130"
  },
  {
    "category": "공원",
    "NO": "97",
    "AREA_CD": "POI097",
    "name": "불광천",
    "ENG_NM": "Bulgwangcheon River",
    "images": "image97",
    "longitude": "126.91266",
    "latitude": "37.58603"
  },
  {
    "category": "공원",
    "NO": "98",
    "AREA_CD": "POI098",
    "name": "서리풀공원·몽마르뜨공원",
    "ENG_NM": "Seoripul Park·Montmartre Park",
    "images": "image98",
    "longitude": "127.00173",
    "latitude": "37.49024"
  },
  {
    "category": "공원",
    "NO": "99",
    "AREA_CD": "POI099",
    "name": "서울광장",
    "ENG_NM": "Seoul Plaza",
    "images": "image99",
    "longitude": "126.97798",
    "latitude": "37.56563"
  },
  {
    "category": "공원",
    "NO": "100",
    "AREA_CD": "POI100",
    "name": "서울대공원",
    "ENG_NM": "Seoul Grand Park",
    "images": "image100",
    "longitude": "127.01560",
    "latitude": "37.43037"
  },
  {
    "category": "공원",
    "NO": "101",
    "AREA_CD": "POI101",
    "name": "서울숲공원",
    "ENG_NM": "Seoul Forest",
    "images": "image101",
    "longitude": "127.03823",
    "latitude": "37.54202"
  },
  {
    "category": "공원",
    "NO": "102",
    "AREA_CD": "POI102",
    "name": "아차산",
    "ENG_NM": "Achasan",
    "images": "image102",
    "longitude": "127.10246",
    "latitude": "37.56556"
  },
  {
    "category": "공원",
    "NO": "103",
    "AREA_CD": "POI103",
    "name": "양화한강공원",
    "ENG_NM": "Yanghwa Hangang Park",
    "images": "image103",
    "longitude": "126.89866",
    "latitude": "37.54091"
  },
  {
    "category": "공원",
    "NO": "104",
    "AREA_CD": "POI104",
    "name": "어린이대공원",
    "ENG_NM": "Children's Grand Park",
    "images": "image104",
    "longitude": "127.08065",
    "latitude": "37.54824"
  },
  {
    "category": "공원",
    "NO": "105",
    "AREA_CD": "POI105",
    "name": "여의도한강공원",
    "ENG_NM": "Yeouido Hangang Park",
    "images": "image105",
    "longitude": "126.92869",
    "latitude": "37.53063"
  },
  {
    "category": "공원",
    "NO": "106",
    "AREA_CD": "POI106",
    "name": "월드컵공원",
    "ENG_NM": "World Cup Park",
    "images": "image106",
    "longitude": "126.88498",
    "latitude": "37.56903"
  },
  {
    "category": "공원",
    "NO": "107",
    "AREA_CD": "POI107",
    "name": "응봉산",
    "ENG_NM": "Eungbongsan",
    "images": "image107",
    "longitude": "127.03017",
    "latitude": "37.54779"
  },
  {
    "category": "공원",
    "NO": "108",
    "AREA_CD": "POI108",
    "name": "이촌한강공원",
    "ENG_NM": "Ichon Hangang Park",
    "images": "image108",
    "longitude": "126.97273",
    "latitude": "37.51629"
  },
  {
    "category": "공원",
    "NO": "109",
    "AREA_CD": "POI109",
    "name": "잠실종합운동장",
    "ENG_NM": "Jamsil (Seoul) Sports Complex",
    "images": "image109",
    "longitude": "127.07387",
    "latitude": "37.51422"
  },
  {
    "category": "공원",
    "NO": "110",
    "AREA_CD": "POI110",
    "name": "잠실한강공원",
    "ENG_NM": "Jamsil Hangang Park",
    "images": "image110",
    "longitude": "127.08478",
    "latitude": "37.51779"
  },
  {
    "category": "공원",
    "NO": "111",
    "AREA_CD": "POI111",
    "name": "잠원한강공원",
    "ENG_NM": "Jamwon Hangang Park",
    "images": "image111",
    "longitude": "127.01557",
    "latitude": "37.52483"
  },
  {
    "category": "공원",
    "NO": "112",
    "AREA_CD": "POI112",
    "name": "청계산",
    "ENG_NM": "Cheonggyesan",
    "images": "image112",
    "longitude": "127.05041",
    "latitude": "37.43930"
  },
  {
    "category": "공원",
    "NO": "113",
    "AREA_CD": "POI113",
    "name": "청와대",
    "ENG_NM": "Cheongwadae",
    "images": "image113",
    "longitude": "126.97626",
    "latitude": "37.58541"
  },
  {
    "category": "발달상권",
    "NO": "114",
    "AREA_CD": "POI114",
    "name": "북창동 먹자골목",
    "ENG_NM": "Bukchang-dong food alley",
    "images": "image114",
    "longitude": "126.97840",
    "latitude": "37.56233"
  },
  {
    "category": "발달상권",
    "NO": "115",
    "AREA_CD": "POI115",
    "name": "남대문시장",
    "ENG_NM": "Namdaemun Market",
    "images": "image115",
    "longitude": "126.97861",
    "latitude": "37.55996"
  }
]
